<?xml version="1.0" encoding="UTF-8"?>
<gpx version="1.1" creator="ChatGPT Sanya Guide v3" xmlns="http://www.topografix.com/GPX/1/1">
<wpt lat="18.221" lon="109.5207"><name>Ascott Dadonghai Bay Sanya</name><desc>База | 三亚雅诗阁山海天服务公寓 / 三亚绿发山海天雅诗阁服务公寓 | Отель / база | каждый день | База отличная: Dadonghai, пляж, бары, DiDi | Адрес: 海韵路66号, 大东海. Координаты приблизительные; в Amap ищите китайское название.</desc></wpt>
<wpt lat="18.3029" lon="109.4123"><name>Sanya Phoenix International Airport</name><desc>Транспорт | 三亚凤凰国际机场 | Аэропорт | 5 и 14 июля | DiDi/такси, не автобус для раннего рейса | Для вылета: 国际出发 / international departures.</desc></wpt>
<wpt lat="18.2223" lon="109.5195"><name>Dadonghai Beach</name><desc>Пляж | 大东海 | Домашний пляж | утро/вечер | Удобно, но не самый вау пляж | Купаться только в разрешённых зонах и по флагам.</desc></wpt>
<wpt lat="18.2206" lon="109.499"><name>Luhuitou Scenic Area</name><desc>Вид | 鹿回头风景区 | Закат / вид на город | 17:30-20:00 | Точно стоит как лёгкий вечер | Не полдня, а sunset-стоп рядом с Dadonghai.</desc></wpt>
<wpt lat="18.2634" lon="109.3733"><name>West Island Tourist Center</name><desc>Остров | 西岛游客中心 | Причал на West Island | лучше утром | Остров №1 для поездки | Если ветер/ливень - не плыть.</desc></wpt>
<wpt lat="18.2315" lon="109.3808"><name>West Island / Niuwangling</name><desc>Остров | 西岛 / 牛王岭 | Остров, фото, купание | 08:30-15:30 | Точно стоит | Рыбацкая деревня + фото + море; меньше конвейера, чем Wuzhizhou.</desc></wpt>
<wpt lat="18.2266" lon="109.6252"><name>Yalong Bay Beach</name><desc>Пляж | 亚龙湾海滩 | Лучший классический пляж | утро или после 16:00 | Точно стоит для купания | Красивее Dadonghai, но днём жарко.</desc></wpt>
<wpt lat="18.2478" lon="109.6423"><name>Yalong Bay Tropical Paradise Forest Park</name><desc>Природа | 亚龙湾热带天堂森林公园 | Виды / лесной парк | 08:00-12:30 | Стоит 1 раз, туристично | Доплаты за мосты/аттракционы; не идти в ливень.</desc></wpt>
<wpt lat="18.2073" lon="109.6422"><name>Sun Bay Road viewpoint</name><desc>Фото | 太阳湾路观景点 | Coastal road / фото | утро/закат | Красиво как фотостоп | Лучше совмещать с Yalong Bay.</desc></wpt>
<wpt lat="18.4015" lon="109.6738"><name>Yanoda Rainforest</name><desc>Природа | 呀诺达热带雨林文化旅游区 | Джунгли | утром | Возможно стоит | Хорошо в лёгкий дождь, плохо в ливень/духоту.</desc></wpt>
<wpt lat="18.3093" lon="109.4917"><name>Sanya Railway Station</name><desc>Поезд | 三亚站 | Поезд на Wanning/Lingshui | дальние выезды | Нужен для Wanning | Билеты в Trip.com/12306, паспорт обязателен.</desc></wpt>
<wpt lat="18.6298" lon="110.2156"><name>Riyue Bay</name><desc>Wanning | 日月湾 | Серф-вайб | день Wanning | Точно стоит, если погода норм | Серф-проба, кафе, волны; осторожно с рипами.</desc></wpt>
<wpt lat="18.66865" lon="110.28058"><name>Shimei Bay</name><desc>Wanning | 石梅湾 | Спокойная красивая бухта | день Wanning | Стоит как часть выезда | Не шопинг, а побережье/кафе/вид.</desc></wpt>
<wpt lat="18.684" lon="110.328"><name>Shenzhou Peninsula</name><desc>Wanning | 神州半岛 | Пляж/маяк/вид | день Wanning | Возможно стоит | Смотреть по времени и погоде.</desc></wpt>
<wpt lat="18.3016" lon="109.7527"><name>Houhai Village</name><desc>Море | 后海村 / 藤海渔村 | Surf village / бары | после 15:00 | Молодой вайб, не главный swim-day | Шумно вечером, хорошо для серфа/кафе/баров.</desc></wpt>
<wpt lat="18.3031" lon="109.7535"><name>Wuzhizhou Island Tourist Center</name><desc>Остров | 蜈支洲岛游客中心 | Причал Wuzhizhou | только ясное море | Возможно стоит | Красиво, но коммерчески и дорого.</desc></wpt>
<wpt lat="18.3135" lon="109.77"><name>Wuzhizhou Island</name><desc>Остров | 蜈支洲岛 | Остров/водные активности | утром | Не в плохую погоду | Толпы, очереди, доплаты.</desc></wpt>
<wpt lat="18.3297" lon="109.7358"><name>CDF Sanya International Duty Free City</name><desc>Шопинг | 三亚国际免税城 | Duty free | дождь/жара/шопинг | Стоит, если есть список покупок | Адрес: 海棠北路118号. Паспорт + данные вылета.</desc></wpt>
<wpt lat="18.3378" lon="109.7328"><name>Atlantis Sanya Lost Chambers Aquarium</name><desc>Indoor | 三亚亚特兰蒂斯失落的空间水族馆 | Океанариум | дождь/жара | Стоит как вау-indoor | 30 экспозиций, большой аквариум; лучше совмещать с CDF.</desc></wpt>
<wpt lat="18.3347" lon="109.7355"><name>The Sanya EDITION Sky Bar</name><desc>Бар | 三亚艾迪逊酒店 Sky Bar | Красивый бар | вечер Haitang | Один вау-вечер | Дороже, adults-only вайб.</desc></wpt>
<wpt lat="18.2948" lon="109.2119"><name>Nanshan Cultural Tourism Zone</name><desc>Культура | 南山文化旅游区 | Культура/архитектура | утро | Возможно стоит | Не религиозно, а масштаб/вид/архитектура.</desc></wpt>
<wpt lat="18.274" lon="109.452"><name>Sanya Bay Coconut Dream Corridor</name><desc>Закат | 三亚湾椰梦长廊 | Закат/прогулка | 17:30-19:30 | Только вечер | Не главный пляж для купания.</desc></wpt>
<wpt lat="18.28389" lon="109.51484"><name>Sanya Joy City</name><desc>Шопинг | 三亚大悦城 | Современный ТЦ | дождь/жара | Лучше Ананаса для indoor-day | Адрес: 迎宾路233号.</desc></wpt>
<wpt lat="18.22522" lon="109.51904"><name>Summer Mall</name><desc>Шопинг | 夏日百货 | ТЦ рядом | если рядом/дождь | Удобно, не вау | Tax refund mall, не offshore duty free.</desc></wpt>
<wpt lat="18.22376" lon="109.5249"><name>Pineapple Shopping Center</name><desc>Шопинг | 大菠萝 / 三亚1号港湾城 | ТЦ рядом / landmark | если рядом | Не делать главным | Отзывы смешанные; зайти по пути.</desc></wpt>
<wpt lat="18.2513" lon="109.5087"><name>First Market / Xinmin Street</name><desc>Еда | 第一市场 / 新民街 | Seafood + фрукты | вечер/обед | Колоритно, но туристично | Цена за 斤 и обработку до заказа.</desc></wpt>
<wpt lat="18.251" lon="109.5085"><name>MS.LIN'S Seafood / Linjie</name><desc>Еда | 林姐香味海鲜 | Seafood processing | обед/ужин | Кандидат seafood | No.139 Xinmin Street; фиксировать итоговую цену.</desc></wpt>
<wpt lat="18.224" lon="109.518"><name>Dolphin Sports Bar &amp; Grill</name><desc>Еда | Dolphin海豚美式西餐厅 | Пиво/бар/fallback | вечер | Надёжно, не локально | Yuya Road 99; бургеры, wings, пиво, спорт-бар.</desc></wpt>
<wpt lat="18.2217" lon="109.5206"><name>FreeGen Beach Bar</name><desc>Бар | FreeGen Beach Bar | Пляжный бар | закат/вечер | Первый вечер / sunset | Dadonghai beachfront; коктейли, простой ужин.</desc></wpt>
<wpt lat="18.224" lon="109.5245"><name>Yanjiang Hainan Cuisine</name><desc>Еда | 沿江海南菜 | Хайнаньская кухня | обед/ужин | Хороший ввод в локальные блюда | Ищите актуальную точку в Amap/Dianping: 沿江海南菜.</desc></wpt>
<wpt lat="18.2242" lon="109.5242"><name>Coconut Chicken candidate</name><desc>Еда | 椰小鸡 / 嗲嗲的椰子鸡 | Кокосовая курица | первый ужин | Обязательно попробовать | Ищите ближайшую точку в Amap/Dianping по названию.</desc></wpt>
<wpt lat="18.2252" lon="109.519"><name>Tenfu Tea / tea shops</name><desc>Чай | 天福茗茶 / 茶叶 / 茶馆 | Чай/покупки | дождь/устали | Лучше небольшие дегустации | Пуэр/улун/белый чай; не покупать дорогой aged puer вслепую.</desc></wpt>
<wpt lat="18.2576" lon="109.5098"><name>Tai Qiong Zao-po Vinegar Hotpot (Mingzhu)</name><desc>Еда | 太琼糟粕醋·海南酸汤火锅（明珠广场店） | Кислый seafood hotpot | ужин / дождь / после города | Стоит как яркий локальный вкус | 地址: 解放三路668号明珠广场7楼7-1号。Брать: 糟粕醋酸汤锅, seafood platter, shrimp, beef, seaweed.</desc></wpt>
<wpt lat="18.2768" lon="109.4973"><name>Qiongxiangge Hainan Cuisine</name><desc>Еда | 琼乡阁海南菜 | Хайнаньская кухня backup | обед/ужин, если хочется локального без рынка | Стоит проверить по Amap/Dianping | Брать: 文昌鸡, 菠萝蜜烤文昌鸡, 海南粉, 椰子饭, mango/coconut rolls. Координаты приблизительные: ищите ближайший branch.</desc></wpt>
<wpt lat="18.2514" lon="109.5089"><name>A Lang Seafood / A Lang processing</name><desc>Еда | 阿浪海鲜 / 阿浪海鲜连锁加工 | Seafood backup у First Market | seafood-вечер | Резерв к MS.LIN | Брать: 蒜蓉扇贝, 白灼虾, 清蒸石斑鱼, 香辣蟹. Сначала цена за 斤 + processing fee.</desc></wpt>
<wpt lat="18.2518" lon="109.5089"><name>Zheng Apo Qingbuliang</name><desc>Еда | 郑阿婆清补凉（第一市场店） | Холодный кокосовый десерт | жара / после рынка | Стоит как десерт | 地址: 解放路98/100号. Брать: 传统椰奶清补凉, 芒果冰球清补凉, 椰奶冰球清补凉.</desc></wpt>
<wpt lat="18.2509" lon="109.5077"><name>Aju Cold Drink</name><desc>Еда | 阿菊冷饮店（第一市场店） | Mango ice / qingbuliang | десерт после First Market | Стоит, если нет очереди | 地址: 红旗街一巷19号. Брать: 芒果炒冰, 榴莲炒冰, 清补凉. Популярно;炒冰 может ждать долго.</desc></wpt>
<wpt lat="18.2241" lon="109.5182"><name>Gongman Xiting Dadonghai</name><desc>Еда | 宫满西廷（大东海店） | Фотогеничный fusion-ужин рядом | вечер рядом с отелем | Резерв, если хочется красиво и недалеко | 地址: 榆亚路99-8号, рядом с Dolphin. Брать: 秘制生拌蓬蒿菜, 牛仔粒, 宫廷一品红烧肉, 蟹粉豆腐, 酸汤肥牛.</desc></wpt>
<wpt lat="18.2508" lon="109.5082"><name>Baoluo Fen / Hainan noodles search</name><desc>Еда | 抱罗粉 / 海南粉 | Локальная лапша | завтрак/обед без ресторана | Искать ближайшую точку | Брать: 抱罗粉, 海南粉, 后安粉. Ориентир 15-35 CNY. Используйте Amap/Dianping search.</desc></wpt>
<wpt lat="18.3382" lon="109.7334"><name>Atlantis Aquaventure Waterpark</name><desc>Indoor | 三亚亚特兰蒂斯水世界 | Аквапарк full-day | жара/дождь, если хочется аттракционов | Альтернатива, не must | Обычно 10:00-20:00, но сверить в день. Нужен купальник, SPF, водозащита.</desc></wpt>
<wpt lat="18.2057" lon="109.5068"><name>Mandarin Oriental Sunset Bar</name><desc>Бар | 三亚文华东方酒店 Sunset Bar / 日落吧 | Романтичный закат и коктейли | спокойный красивый вечер | Комфорт/вау, не каждый день | 地址: 榆海路12号. Брать: tropical/classic cocktails, afternoon tea, light bites. Ради вида, не ради дешёвого алкоголя.</desc></wpt>
<wpt lat="18.2212" lon="109.5166"><name>Casa Corona Sanya</name><desc>Бар | Casa Corona / 卡萨科罗娜酒吧 | Beach club / pool bar Dadonghai | вечер с музыкой/party vibe | Резерв, если хочется движ | The Shanhaitian Resort Sanya, Autograph Collection, 海韵路77号. Брать: Corona, margarita, tacos/snacks; может быть шумно.</desc></wpt>
<wpt lat="18.3378" lon="109.7329"><name>Tikki Lounge &amp; Bar Atlantis</name><desc>Бар | Tikki Lounge &amp; Bar / 三亚亚特兰蒂斯 Tikki酒吧 | Live music / brewpub / Atlantis | после Atlantis/CDF | Резерв к EDITION | Брать: craft beer, signature cocktails, Asian tapas. Сверить часы на месте.</desc></wpt>
<wpt lat="18.5789" lon="110.1905"><name>Boundary Island Tourist Center</name><desc>Остров | 分界洲岛游客中心 | Второй островный день | только при идеальной погоде | Не основной, далеко | Красиво, но логистика сложнее. Не ставить перед вылетом; уточнить про animal shows.</desc></wpt>
<wpt lat="18.3944" lon="109.9752"><name>Nanwan Monkey Island</name><desc>Природа | 南湾猴岛 | Обезьяний остров / канатка | только если очень хочется | Скорее не рекомендую | Этика животных, шоу, отзывы спорные. Включено как “известное, но осознанно не выбрали”.</desc></wpt>
<wpt lat="19.8979" lon="110.2526"><name>Hainan Tropical Wildlife Park</name><desc>Природа | 海南热带野生动植物园 | Зоопарк у Хайкоу | не для этой поездки | Скорее не стоит из Саньи | Слишком далеко от Dadonghai; день лучше потратить на Wanning/Yanoda/West Island.</desc></wpt>
<wpt lat="18.2882" lon="109.3739"><name>Pink Beach / Hyatt Tianli Bay candidate</name><desc>Фото | 粉色沙滩 / 三亚天丽湾凯悦酒店附近 | Фотозона, не природное чудо | только если по пути | Не ехать специально | Вероятнее hotel/photo setup. Для вау-фото лучше West Island, Luhuitou, Sun Bay, Sanya Bay sunset.</desc></wpt>
<wpt lat="18.3069" lon="109.6238"><name>Yalong Bay Railway Station</name><desc>Транспорт | 亚龙湾站 | Ж/д станция | редко, если удобнее для Yalong/Wanning | Резерв | Иногда удобна, но из Dadonghai часто проще DiDi до Sanya Station.</desc></wpt>
<wpt lat="18.6908" lon="110.3368"><name>Shenzhou Railway Station</name><desc>Транспорт | 神州站 | Ж/д для Shenzhou/Wanning | Wanning day | Полезно для day trip | Сверять поезд в Trip.com/12306. После станции нужен DiDi до пляжа.</desc></wpt>
<wpt lat="18.7959" lon="110.3895"><name>Wanning Railway Station</name><desc>Транспорт | 万宁站 | Ж/д для Wanning | Wanning day | Полезно для day trip | Больше транспорта, чем на маленьких станциях; дальше DiDi.</desc></wpt>
<wpt lat="18.5057" lon="110.0378"><name>Lingshui Railway Station</name><desc>Транспорт | 陵水站 | Ж/д для Boundary/Monkey | только если едете в Lingshui | Резерв | Для Boundary/Monkey нужен ещё такси/трансфер.</desc></wpt>
</gpx>